{
  "type": "FeatureCollection",
  "name": "neon",
  "crs": {
    "type": "name",
    "properties": {
      "name": "urn:ogc:def:crs:OGC:1.3:CRS84"
    }
  },
  "features": [
    {
      "type": "Feature",
      "properties": {
        "site_id": "Abby Road",
        "Partner": "NEON",
        "n": 5
      },
      "geometry": {
        "type": "Point",
        "coordinates": [-122.3303, 45.7624]
      }
    },
    {
      "type": "Feature",
      "properties": {
        "site_id": "Arikaree River",
        "Partner": "NEON",
        "n": 5
      },
      "geometry": {
        "type": "Point",
        "coordinates": [-102.4471, 39.7582]
      }
    },
    {
      "type": "Feature",
      "properties": {
        "site_id": "Lake Barco",
        "Partner": "NEON",
        "n": 5
      },
      "geometry": {
        "type": "Point",
        "coordinates": [-82.0084, 29.676]
      }
    },
    {
      "type": "Feature",
      "properties": {
        "site_id": "UtqiaÄ¡vik",
        "Partner": "NEON",
        "n": 5
      },
      "geometry": {
        "type": "Point",
        "coordinates": [-156.6194, 71.2824]
      }
    },
    {
      "type": "Feature",
      "properties": {
        "site_id": "Bartlett Experimental Forest",
        "Partner": "NEON",
        "n": 5
      },
      "geometry": {
        "type": "Point",
        "coordinates": [-71.2874, 44.0639]
      }
    },
    {
      "type": "Feature",
      "properties": {
        "site_id": "Upper Big Creek",
        "Partner": "NEON",
        "n": 5
      },
      "geometry": {
        "type": "Point",
        "coordinates": [-119.2575, 37.0597]
      }
    },
    {
      "type": "Feature",
      "properties": {
        "site_id": "Blandy Experimental Farm",
        "Partner": "NEON",
        "n": 5
      },
      "geometry": {
        "type": "Point",
        "coordinates": [-78.0418, 39.0337]
      }
    },
    {
      "type": "Feature",
      "properties": {
        "site_id": "Blacktail Deer Creek",
        "Partner": "NEON",
        "n": 5
      },
      "geometry": {
        "type": "Point",
        "coordinates": [-110.5871, 44.9501]
      }
    },
    {
      "type": "Feature",
      "properties": {
        "site_id": "Blue River",
        "Partner": "NEON",
        "n": 5
      },
      "geometry": {
        "type": "Point",
        "coordinates": [-96.6242, 34.4442]
      }
    },
    {
      "type": "Feature",
      "properties": {
        "site_id": "Black Warrior River",
        "Partner": "NEON",
        "n": 5
      },
      "geometry": {
        "type": "Point",
        "coordinates": [-87.7982, 32.5415]
      }
    },
    {
      "type": "Feature",
      "properties": {
        "site_id": "Caribou-Poker Creeks Research Watershed",
        "Partner": "NEON",
        "n": 5
      },
      "geometry": {
        "type": "Point",
        "coordinates": [-147.5026, 65.154]
      }
    },
    {
      "type": "Feature",
      "properties": {
        "site_id": "Caribou Creek",
        "Partner": "NEON",
        "n": 5
      },
      "geometry": {
        "type": "Point",
        "coordinates": [-147.504, 65.1532]
      }
    },
    {
      "type": "Feature",
      "properties": {
        "site_id": "Lyndon B. Johnson National Grassland",
        "Partner": "NEON",
        "n": 5
      },
      "geometry": {
        "type": "Point",
        "coordinates": [-97.57, 33.4012]
      }
    },
    {
      "type": "Feature",
      "properties": {
        "site_id": "Como Creek",
        "Partner": "NEON",
        "n": 5
      },
      "geometry": {
        "type": "Point",
        "coordinates": [-105.5442, 40.035]
      }
    },
    {
      "type": "Feature",
      "properties": {
        "site_id": "Central Plains Experimental Range",
        "Partner": "NEON",
        "n": 5
      },
      "geometry": {
        "type": "Point",
        "coordinates": [-104.7456, 40.8155]
      }
    },
    {
      "type": "Feature",
      "properties": {
        "site_id": "Crampton Lake",
        "Partner": "NEON",
        "n": 5
      },
      "geometry": {
        "type": "Point",
        "coordinates": [-89.4737, 46.2097]
      }
    },
    {
      "type": "Feature",
      "properties": {
        "site_id": "Rio Cupeyes",
        "Partner": "NEON",
        "n": 5
      },
      "geometry": {
        "type": "Point",
        "coordinates": [-66.9868, 18.1135]
      }
    },
    {
      "type": "Feature",
      "properties": {
        "site_id": "Dakota Coteau Field Site",
        "Partner": "NEON",
        "n": 5
      },
      "geometry": {
        "type": "Point",
        "coordinates": [-99.1066, 47.1617]
      }
    },
    {
      "type": "Feature",
      "properties": {
        "site_id": "Delta Junction",
        "Partner": "NEON",
        "n": 5
      },
      "geometry": {
        "type": "Point",
        "coordinates": [-145.7514, 63.8811]
      }
    },
    {
      "type": "Feature",
      "properties": {
        "site_id": "Dead Lake",
        "Partner": "NEON",
        "n": 5
      },
      "geometry": {
        "type": "Point",
        "coordinates": [-87.8039, 32.5417]
      }
    },
    {
      "type": "Feature",
      "properties": {
        "site_id": "Disney Wilderness Preserve",
        "Partner": "NEON",
        "n": 5
      },
      "geometry": {
        "type": "Point",
        "coordinates": [-81.4362, 28.1251]
      }
    },
    {
      "type": "Feature",
      "properties": {
        "site_id": "Flint River",
        "Partner": "NEON",
        "n": 5
      },
      "geometry": {
        "type": "Point",
        "coordinates": [-84.4374, 31.1854]
      }
    },
    {
      "type": "Feature",
      "properties": {
        "site_id": "Great Smoky Mountains National Park",
        "Partner": "NEON",
        "n": 5
      },
      "geometry": {
        "type": "Point",
        "coordinates": [-83.5019, 35.689]
      }
    },
    {
      "type": "Feature",
      "properties": {
        "site_id": "Guanica Forest",
        "Partner": "NEON",
        "n": 5
      },
      "geometry": {
        "type": "Point",
        "coordinates": [-66.8687, 17.9696]
      }
    },
    {
      "type": "Feature",
      "properties": {
        "site_id": "Rio Guilarte",
        "Partner": "NEON",
        "n": 5
      },
      "geometry": {
        "type": "Point",
        "coordinates": [-66.7987, 18.1741]
      }
    },
    {
      "type": "Feature",
      "properties": {
        "site_id": "Harvard Forest & Quabbin Watershed",
        "Partner": "NEON",
        "n": 5
      },
      "geometry": {
        "type": "Point",
        "coordinates": [-72.1727, 42.5369]
      }
    },
    {
      "type": "Feature",
      "properties": {
        "site_id": "Healy",
        "Partner": "NEON",
        "n": 5
      },
      "geometry": {
        "type": "Point",
        "coordinates": [-149.2133, 63.8758]
      }
    },
    {
      "type": "Feature",
      "properties": {
        "site_id": "Lower Hop Brook",
        "Partner": "NEON",
        "n": 5
      },
      "geometry": {
        "type": "Point",
        "coordinates": [-72.3295, 42.4719]
      }
    },
    {
      "type": "Feature",
      "properties": {
        "site_id": "The Jones Center At Ichauway",
        "Partner": "NEON",
        "n": 5
      },
      "geometry": {
        "type": "Point",
        "coordinates": [-84.4686, 31.1948]
      }
    },
    {
      "type": "Feature",
      "properties": {
        "site_id": "Jornada Experimental Range",
        "Partner": "NEON",
        "n": 5
      },
      "geometry": {
        "type": "Point",
        "coordinates": [-106.8425, 32.5907]
      }
    },
    {
      "type": "Feature",
      "properties": {
        "site_id": "Kings Creek",
        "Partner": "NEON",
        "n": 5
      },
      "geometry": {
        "type": "Point",
        "coordinates": [-96.6038, 39.1051]
      }
    },
    {
      "type": "Feature",
      "properties": {
        "site_id": "Konza Prairie Agroecosystem",
        "Partner": "NEON",
        "n": 5
      },
      "geometry": {
        "type": "Point",
        "coordinates": [-96.6129, 39.1104]
      }
    },
    {
      "type": "Feature",
      "properties": {
        "site_id": "Konza Prairie Biological Station",
        "Partner": "NEON",
        "n": 5
      },
      "geometry": {
        "type": "Point",
        "coordinates": [-96.5631, 39.1008]
      }
    },
    {
      "type": "Feature",
      "properties": {
        "site_id": "Lajas Experimental Station",
        "Partner": "NEON",
        "n": 5
      },
      "geometry": {
        "type": "Point",
        "coordinates": [-67.0769, 18.0213]
      }
    },
    {
      "type": "Feature",
      "properties": {
        "site_id": "LeConte Creek",
        "Partner": "NEON",
        "n": 5
      },
      "geometry": {
        "type": "Point",
        "coordinates": [-83.5038, 35.6904]
      }
    },
    {
      "type": "Feature",
      "properties": {
        "site_id": "Lenoir Landing",
        "Partner": "NEON",
        "n": 5
      },
      "geometry": {
        "type": "Point",
        "coordinates": [-88.1612, 31.8539]
      }
    },
    {
      "type": "Feature",
      "properties": {
        "site_id": "Lewis Run",
        "Partner": "NEON",
        "n": 5
      },
      "geometry": {
        "type": "Point",
        "coordinates": [-77.9832, 39.0956]
      }
    },
    {
      "type": "Feature",
      "properties": {
        "site_id": "Little Rock Lake",
        "Partner": "NEON",
        "n": 5
      },
      "geometry": {
        "type": "Point",
        "coordinates": [-89.7048, 45.9983]
      }
    },
    {
      "type": "Feature",
      "properties": {
        "site_id": "Martha Creek",
        "Partner": "NEON",
        "n": 5
      },
      "geometry": {
        "type": "Point",
        "coordinates": [-121.9338, 45.7908]
      }
    },
    {
      "type": "Feature",
      "properties": {
        "site_id": "Mayfield Creek",
        "Partner": "NEON",
        "n": 5
      },
      "geometry": {
        "type": "Point",
        "coordinates": [-87.4077, 32.9604]
      }
    },
    {
      "type": "Feature",
      "properties": {
        "site_id": "McDiffett Creek",
        "Partner": "NEON",
        "n": 5
      },
      "geometry": {
        "type": "Point",
        "coordinates": [-96.443, 38.9459]
      }
    },
    {
      "type": "Feature",
      "properties": {
        "site_id": "McRae Creek",
        "Partner": "NEON",
        "n": 5
      },
      "geometry": {
        "type": "Point",
        "coordinates": [-122.1655, 44.2596]
      }
    },
    {
      "type": "Feature",
      "properties": {
        "site_id": "Mountain Lake Biological Station",
        "Partner": "NEON",
        "n": 5
      },
      "geometry": {
        "type": "Point",
        "coordinates": [-80.5248, 37.3783]
      }
    },
    {
      "type": "Feature",
      "properties": {
        "site_id": "Moab",
        "Partner": "NEON",
        "n": 5
      },
      "geometry": {
        "type": "Point",
        "coordinates": [-109.3883, 38.2483]
      }
    },
    {
      "type": "Feature",
      "properties": {
        "site_id": "Niwot Ridge",
        "Partner": "NEON",
        "n": 5
      },
      "geometry": {
        "type": "Point",
        "coordinates": [-105.5824, 40.0543]
      }
    },
    {
      "type": "Feature",
      "properties": {
        "site_id": "Northern Great Plains Research Laboratory",
        "Partner": "NEON",
        "n": 5
      },
      "geometry": {
        "type": "Point",
        "coordinates": [-100.9154, 46.7697]
      }
    },
    {
      "type": "Feature",
      "properties": {
        "site_id": "Marvin Klemme Range Research Station",
        "Partner": "NEON",
        "n": 5
      },
      "geometry": {
        "type": "Point",
        "coordinates": [-99.0588, 35.4106]
      }
    },
    {
      "type": "Feature",
      "properties": {
        "site_id": "Oksrukuyik Creek",
        "Partner": "NEON",
        "n": 5
      },
      "geometry": {
        "type": "Point",
        "coordinates": [-149.143, 68.6698]
      }
    },
    {
      "type": "Feature",
      "properties": {
        "site_id": "Onaqui",
        "Partner": "NEON",
        "n": 5
      },
      "geometry": {
        "type": "Point",
        "coordinates": [-112.4524, 40.1776]
      }
    },
    {
      "type": "Feature",
      "properties": {
        "site_id": "Oak Ridge",
        "Partner": "NEON",
        "n": 5
      },
      "geometry": {
        "type": "Point",
        "coordinates": [-84.2826, 35.9641]
      }
    },
    {
      "type": "Feature",
      "properties": {
        "site_id": "Ordway-Swisher Biological Station",
        "Partner": "NEON",
        "n": 5
      },
      "geometry": {
        "type": "Point",
        "coordinates": [-81.9934, 29.6893]
      }
    },
    {
      "type": "Feature",
      "properties": {
        "site_id": "Posey Creek",
        "Partner": "NEON",
        "n": 5
      },
      "geometry": {
        "type": "Point",
        "coordinates": [-78.1473, 38.8943]
      }
    },
    {
      "type": "Feature",
      "properties": {
        "site_id": "Pringle Creek",
        "Partner": "NEON",
        "n": 5
      },
      "geometry": {
        "type": "Point",
        "coordinates": [-97.7823, 33.3785]
      }
    },
    {
      "type": "Feature",
      "properties": {
        "site_id": "Prairie Lake",
        "Partner": "NEON",
        "n": 5
      },
      "geometry": {
        "type": "Point",
        "coordinates": [-99.1139, 47.1591]
      }
    },
    {
      "type": "Feature",
      "properties": {
        "site_id": "Prairie Pothole",
        "Partner": "NEON",
        "n": 5
      },
      "geometry": {
        "type": "Point",
        "coordinates": [-99.2531, 47.1298]
      }
    },
    {
      "type": "Feature",
      "properties": {
        "site_id": "Pu'u Maka'ala Natural Area Reserve",
        "Partner": "NEON",
        "n": 5
      },
      "geometry": {
        "type": "Point",
        "coordinates": [-155.3173, 19.5531]
      }
    },
    {
      "type": "Feature",
      "properties": {
        "site_id": "Red Butte Creek",
        "Partner": "NEON",
        "n": 5
      },
      "geometry": {
        "type": "Point",
        "coordinates": [-111.7979, 40.7839]
      }
    },
    {
      "type": "Feature",
      "properties": {
        "site_id": "Rocky Mountains",
        "Partner": "NEON",
        "n": 5
      },
      "geometry": {
        "type": "Point",
        "coordinates": [-105.546, 40.2759]
      }
    },
    {
      "type": "Feature",
      "properties": {
        "site_id": "Smithsonian Conservation Biology Institute",
        "Partner": "NEON",
        "n": 5
      },
      "geometry": {
        "type": "Point",
        "coordinates": [-78.1395, 38.8929]
      }
    },
    {
      "type": "Feature",
      "properties": {
        "site_id": "Smithsonian Environmental Research Center",
        "Partner": "NEON",
        "n": 5
      },
      "geometry": {
        "type": "Point",
        "coordinates": [-76.56, 38.8901]
      }
    },
    {
      "type": "Feature",
      "properties": {
        "site_id": "San Joaquin Experimental Range",
        "Partner": "NEON",
        "n": 5
      },
      "geometry": {
        "type": "Point",
        "coordinates": [-119.7323, 37.1088]
      }
    },
    {
      "type": "Feature",
      "properties": {
        "site_id": "Soaproot Saddle",
        "Partner": "NEON",
        "n": 5
      },
      "geometry": {
        "type": "Point",
        "coordinates": [-119.2622, 37.0334]
      }
    },
    {
      "type": "Feature",
      "properties": {
        "site_id": "Santa Rita Experimental Range",
        "Partner": "NEON",
        "n": 5
      },
      "geometry": {
        "type": "Point",
        "coordinates": [-110.8355, 31.9107]
      }
    },
    {
      "type": "Feature",
      "properties": {
        "site_id": "Steigerwaldt-Chequamegon",
        "Partner": "NEON",
        "n": 5
      },
      "geometry": {
        "type": "Point",
        "coordinates": [-89.5864, 45.5089]
      }
    },
    {
      "type": "Feature",
      "properties": {
        "site_id": "North Sterling",
        "Partner": "NEON",
        "n": 5
      },
      "geometry": {
        "type": "Point",
        "coordinates": [-103.0293, 40.4619]
      }
    },
    {
      "type": "Feature",
      "properties": {
        "site_id": "Lake Suggs",
        "Partner": "NEON",
        "n": 5
      },
      "geometry": {
        "type": "Point",
        "coordinates": [-82.0177, 29.6878]
      }
    },
    {
      "type": "Feature",
      "properties": {
        "site_id": "Sycamore Creek",
        "Partner": "NEON",
        "n": 5
      },
      "geometry": {
        "type": "Point",
        "coordinates": [-111.5081, 33.751]
      }
    },
    {
      "type": "Feature",
      "properties": {
        "site_id": "Talladega National Forest",
        "Partner": "NEON",
        "n": 5
      },
      "geometry": {
        "type": "Point",
        "coordinates": [-87.3933, 32.9505]
      }
    },
    {
      "type": "Feature",
      "properties": {
        "site_id": "Lower Teakettle",
        "Partner": "NEON",
        "n": 5
      },
      "geometry": {
        "type": "Point",
        "coordinates": [-119.006, 37.0058]
      }
    },
    {
      "type": "Feature",
      "properties": {
        "site_id": "Teakettle Creek - Watershed 2",
        "Partner": "NEON",
        "n": 5
      },
      "geometry": {
        "type": "Point",
        "coordinates": [-119.0274, 36.9559]
      }
    },
    {
      "type": "Feature",
      "properties": {
        "site_id": "Lower Tombigbee River",
        "Partner": "NEON",
        "n": 5
      },
      "geometry": {
        "type": "Point",
        "coordinates": [-88.1589, 31.8534]
      }
    },
    {
      "type": "Feature",
      "properties": {
        "site_id": "Toolik Lake",
        "Partner": "NEON",
        "n": 5
      },
      "geometry": {
        "type": "Point",
        "coordinates": [-149.6106, 68.6307]
      }
    },
    {
      "type": "Feature",
      "properties": {
        "site_id": "Toolik Field Station",
        "Partner": "NEON",
        "n": 5
      },
      "geometry": {
        "type": "Point",
        "coordinates": [-149.3705, 68.6611]
      }
    },
    {
      "type": "Feature",
      "properties": {
        "site_id": "Treehaven",
        "Partner": "NEON",
        "n": 5
      },
      "geometry": {
        "type": "Point",
        "coordinates": [-89.5857, 45.4937]
      }
    },
    {
      "type": "Feature",
      "properties": {
        "site_id": "University of Kansas Field Station",
        "Partner": "NEON",
        "n": 5
      },
      "geometry": {
        "type": "Point",
        "coordinates": [-95.1921, 39.0404]
      }
    },
    {
      "type": "Feature",
      "properties": {
        "site_id": "University of Notre Dame Environmental Research Center",
        "Partner": "NEON",
        "n": 5
      },
      "geometry": {
        "type": "Point",
        "coordinates": [-89.5373, 46.2339]
      }
    },
    {
      "type": "Feature",
      "properties": {
        "site_id": "Walker Branch",
        "Partner": "NEON",
        "n": 5
      },
      "geometry": {
        "type": "Point",
        "coordinates": [-84.2793, 35.9574]
      }
    },
    {
      "type": "Feature",
      "properties": {
        "site_id": "West St Louis Creek",
        "Partner": "NEON",
        "n": 5
      },
      "geometry": {
        "type": "Point",
        "coordinates": [-105.9154, 39.8914]
      }
    },
    {
      "type": "Feature",
      "properties": {
        "site_id": "Chase Lake National Wildlife Refuge",
        "Partner": "NEON",
        "n": 5
      },
      "geometry": {
        "type": "Point",
        "coordinates": [-99.2413, 47.1282]
      }
    },
    {
      "type": "Feature",
      "properties": {
        "site_id": "Wind River Experimental Forest",
        "Partner": "NEON",
        "n": 5
      },
      "geometry": {
        "type": "Point",
        "coordinates": [-121.9519, 45.8205]
      }
    },
    {
      "type": "Feature",
      "properties": {
        "site_id": "Yellowstone National Park",
        "Partner": "NEON",
        "n": 5
      },
      "geometry": {
        "type": "Point",
        "coordinates": [-110.5391, 44.9535]
      }
    }
  ]
}
